City_ID,City,Cloudiness,Country,Date,Humidity,Lat,Lng,Max Temp,Wind Speed
0,pevek,0,RU,1560162510,79,69.7,170.27,40.9,2.86
1,cape town,75,ZA,1560162334,67,-33.93,18.42,66.0,14.99
2,kashihara,75,JP,1560162510,68,34.51,135.79,72.0,10.29
3,kaitangata,81,NZ,1560162511,82,-46.28,169.85,45.0,1.01
4,keetmanshoop,0,NA,1560162511,16,-26.57,18.15,68.0,2.24
5,los llanos de aridane,40,ES,1560162511,60,28.66,-17.92,71.6,13.87
6,arraial do cabo,75,BR,1560162512,94,-22.97,-42.02,68.0,4.7
7,pacific grove,1,US,1560162512,52,36.62,-121.92,71.01,6.67
8,luderitz,0,NA,1560162512,70,-26.65,15.16,59.62,11.16
9,airai,5,TL,1560162513,65,-8.93,125.41,82.3,2.44
10,hilo,90,US,1560162513,78,19.71,-155.08,73.4,4.7
11,grootfontein,0,NA,1560162514,26,-19.56,18.1,67.9,9.66
12,hobart,98,AU,1560162251,69,-42.88,147.33,55.0,3.0
13,chuy,73,UY,1560162514,92,-33.69,-53.46,64.3,15.21
14,yellowknife,20,CA,1560162514,80,62.45,-114.38,35.6,6.93
15,bluff,16,AU,1560162515,60,-23.58,149.07,67.54,6.62
16,busselton,31,AU,1560162515,55,-33.64,115.35,51.01,34.54
17,namibe,0,AO,1560162517,64,-15.19,12.15,73.4,1.03
18,torrington,1,US,1560162517,42,42.06,-104.18,44.01,5.93
19,itarema,93,BR,1560162517,91,-2.92,-39.92,74.38,5.44
20,arlit,13,NE,1560162518,8,18.74,7.39,102.28,11.34
21,saint-augustin,75,FR,1560162518,55,44.83,-0.61,66.0,4.7
22,bambous virieux,90,MU,1560162518,78,-20.34,57.76,77.0,10.29
23,the valley,20,AI,1560162514,78,18.22,-63.06,81.0,12.75
24,port alfred,3,ZA,1560162519,69,-33.59,26.89,69.01,3.0
25,tsumeb,0,NA,1560162519,20,-19.25,17.72,72.58,10.69
26,rikitea,85,PF,1560162520,73,-23.12,-134.97,72.94,14.12
27,san felipe,100,CL,1560162520,41,-32.75,-70.73,51.01,1.72
28,petropavlovsk-kamchatskiy,75,RU,1560162521,81,53.05,158.65,48.2,6.71
29,torbay,90,CA,1560162521,93,47.66,-52.73,43.0,14.99
30,gunjur,40,GM,1560162521,69,13.18,-16.76,82.4,8.05
31,gushikawa,1,JP,1560162522,88,26.35,127.87,78.8,4.7
32,lebu,75,ET,1560162522,82,8.96,38.73,64.4,6.93
33,ushuaia,40,AR,1560162522,73,-54.81,-68.31,32.0,23.04
34,sao joao da barra,75,BR,1560162523,94,-21.64,-41.05,68.0,3.98
35,punta arenas,20,CL,1560162523,80,-53.16,-70.91,33.8,17.22
36,kapaa,20,US,1560162524,83,22.08,-159.32,75.2,5.82
37,lake charles,1,US,1560162524,88,30.23,-93.22,78.8,6.93
38,tuktoyaktuk,19,CA,1560162524,75,69.44,-133.03,36.58,5.73
39,albany,75,US,1560162525,71,42.65,-73.75,57.0,1.32
40,new norfolk,98,AU,1560162525,46,-42.78,147.06,55.0,11.99
41,banatski karlovac,20,RS,1560162525,58,45.05,21.02,84.2,5.82
42,turbat,0,PK,1560162526,5,26.0,63.05,116.86,17.27
43,tiksi,0,RU,1560162526,41,71.64,128.87,59.98,14.92
44,big spring,90,US,1560162527,67,32.25,-101.48,64.0,17.22
45,mukhen,60,RU,1560162527,71,48.19,136.14,71.14,4.23
46,east london,0,ZA,1560162527,46,-33.02,27.91,71.6,12.75
47,palmer,0,AU,1560162528,76,-34.85,139.16,54.0,1.12
48,avarua,99,CK,1560162528,73,-21.21,-159.78,75.2,5.82
49,soyo,75,AO,1560162528,78,-6.13,12.37,77.0,5.82
50,geraldton,90,CA,1560162529,100,49.72,-86.95,51.8,11.41
51,deputatskiy,41,RU,1560162529,20,69.3,139.9,72.58,11.48
52,vaini,75,IN,1560162530,44,15.34,74.49,93.2,13.87
53,sur,0,OM,1560162530,10,22.57,59.53,111.28,9.86
54,comodoro rivadavia,40,AR,1560162530,55,-45.87,-67.48,39.2,19.46
55,liliani,0,PK,1560162531,9,32.21,72.95,110.92,4.97
56,saint george,40,GR,1560162433,42,39.45,22.34,84.2,5.82
57,dikson,49,RU,1560162532,92,73.51,80.55,31.36,4.94
58,port elizabeth,90,US,1560162532,100,39.31,-74.98,69.01,6.93
59,erzin,0,TR,1560162532,52,36.95,36.2,90.0,26.4
60,kikwit,34,CD,1560162533,18,-5.04,18.82,90.58,9.51
61,pitimbu,75,BR,1560162533,100,-7.47,-34.81,75.2,3.36
62,mar del plata,91,AR,1560162533,49,-46.43,-67.52,37.12,21.18
63,mahebourg,90,MU,1560162534,78,-20.41,57.7,77.0,10.29
64,fortuna,0,ES,1560162534,20,38.18,-1.13,86.0,2.24
65,longyearbyen,0,NO,1560162535,65,78.22,15.63,41.0,1.68
66,atar,65,MR,1560162535,13,20.52,-13.05,92.74,16.82
67,ribeira grande,20,PT,1560162535,77,38.52,-28.7,68.0,3.36
68,castro,8,CL,1560162536,100,-42.48,-73.76,33.8,3.36
69,hermanus,7,ZA,1560162536,74,-34.42,19.24,62.01,8.01
70,barrow,82,AR,1560162537,64,-38.31,-60.23,49.0,7.43
71,ingham,67,AU,1560162537,98,-18.65,146.16,65.2,2.48
72,dzaoudzi,75,YT,1560162537,66,-12.79,45.27,84.2,19.46
73,samarai,77,PG,1560162538,93,-10.62,150.67,73.84,5.14
74,port pirie,0,AU,1560162538,47,-33.18,138.01,55.4,8.05
75,cabo san lucas,0,MX,1560162539,61,22.89,-109.91,77.0,9.06
76,waterloo,90,CA,1560162539,68,43.47,-80.52,66.99,10.29
77,la ronge,75,CA,1560162540,86,55.1,-105.3,41.0,6.93
78,maine-soroa,56,NE,1560162540,36,13.21,12.02,94.54,5.08
79,port blair,100,IN,1560162299,78,11.67,92.75,84.46,28.74
80,sao filipe,59,CV,1560162541,82,14.9,-24.5,74.02,18.61
81,caravelas,100,BR,1560162541,90,-17.73,-39.27,73.12,9.17
82,bowen,51,AU,1560162542,93,-20.01,148.25,66.99,8.72
83,krasnystaw,75,PL,1560162542,61,50.98,23.16,80.6,10.29
84,ancud,3,CL,1560162543,100,-41.87,-73.83,33.8,3.36
85,cidreira,19,BR,1560162544,83,-30.17,-50.22,65.38,5.88
86,yuanping,100,CN,1560162544,23,38.72,112.71,75.82,4.32
87,la palma,100,CO,1560162545,93,5.36,-74.39,64.66,2.73
88,roma,0,IT,1560162545,43,41.89,12.48,91.99,5.82
89,bredasdorp,12,ZA,1560162546,56,-34.53,20.04,68.0,24.16
90,carnarvon,0,ZA,1560162546,59,-30.97,22.13,52.42,3.04
91,nola,36,CF,1560162546,45,3.52,16.05,91.84,1.25
92,miandrivazo,0,MG,1560162547,37,-19.53,45.46,85.36,9.1
93,khatanga,100,RU,1560162547,83,71.98,102.47,38.2,10.49
94,pokhara,14,NP,1560162548,45,28.21,83.99,70.78,8.32
95,copiapo,0,CL,1560162548,87,-27.37,-70.33,46.4,6.93
96,wukari,46,NG,1560162548,61,7.87,9.78,86.08,6.38
97,ambilobe,100,MG,1560162549,49,-13.19,49.05,81.58,11.1
98,aswan,0,EG,1560162549,13,24.09,32.9,100.4,12.75
99,tasiilaq,75,GL,1560162549,64,65.61,-37.64,39.2,6.93
100,vavozh,100,RU,1560162550,73,56.77,51.93,76.72,8.34
101,saldanha,98,PT,1560162550,58,41.42,-6.55,58.54,4.34
102,kitimat,90,CA,1560162551,93,54.02,-128.69,50.0,3.36
103,sari,20,IR,1560162551,52,36.57,53.06,87.8,9.17
104,puerto ayora,30,EC,1560162552,89,-0.74,-90.35,73.48,7.92
105,bethel,75,US,1560162552,76,60.79,-161.76,53.6,6.93
106,iranshahr,20,IR,1560162553,10,27.21,60.69,109.4,6.93
107,grindavik,20,IS,1560162553,71,63.84,-22.43,53.6,9.17
108,nikolskoye,40,RU,1560162553,46,59.7,30.79,71.01,15.66
109,kahului,1,US,1560162554,69,20.89,-156.47,75.0,8.86
110,thompson,75,CA,1560162554,80,55.74,-97.86,39.2,3.36
111,severo-kurilsk,57,RU,1560162555,90,50.68,156.12,41.62,8.3
112,ponta delgada,75,PT,1560162295,77,37.73,-25.67,66.2,4.7
113,abalak,12,NE,1560162555,31,15.46,6.28,96.16,12.06
114,jamestown,0,AU,1560162365,59,-33.21,138.6,54.4,4.16
115,davila,75,PH,1560162556,70,18.47,120.58,89.6,10.29
116,souillac,75,FR,1560162556,55,45.6,-0.6,66.0,11.41
117,georgetown,40,GY,1560162337,94,6.8,-58.16,75.2,4.7
118,victoria,75,BN,1560162528,83,5.28,115.24,87.01,3.36
119,mayumba,29,GA,1560162558,85,-3.44,10.65,75.46,7.74
120,lubartow,75,PL,1560162559,61,51.46,22.61,80.6,10.29
121,codrington,90,AU,1560162559,87,-28.95,153.24,61.0,6.93
122,gunnedah,40,AU,1560162560,100,-30.98,150.25,52.0,1.12
123,gat,20,SN,1560162560,78,14.69,-16.54,78.8,9.17
124,san patricio,88,PY,1560162560,64,-26.98,-56.83,66.46,9.51
125,kushnarenkovo,17,RU,1560162561,70,55.11,55.34,76.54,14.18
126,wajir,75,KE,1560162561,38,1.75,40.07,89.6,13.87
127,qaanaaq,0,GL,1560162561,72,77.48,-69.36,28.12,3.65
128,itaituba,39,BR,1560162562,88,-4.26,-55.99,72.04,1.3
129,monroe,90,US,1560162562,93,41.91,-83.4,69.8,6.93
130,mataura,24,NZ,1560162563,94,-46.19,168.86,45.22,4.63
131,derzhavinsk,31,KZ,1560162563,33,51.1,66.31,74.02,9.35
132,bathsheba,20,BB,1560162563,69,13.22,-59.52,82.4,20.8
133,saint-georges,97,CA,1560162564,84,46.12,-70.67,55.0,3.76
134,nemuro,75,JP,1560162564,81,43.32,145.57,53.6,6.93
135,tigre,75,AR,1560162565,93,-34.42,-58.58,62.01,8.05
136,sainte-suzanne,75,CH,1560162565,82,47.51,6.77,66.0,1.12
137,la sarre,97,CA,1560162565,60,48.8,-79.2,59.44,5.84
138,odder,85,DK,1560162566,72,55.98,10.15,62.01,9.17
139,alofi,100,NU,1560162566,94,-19.06,-169.92,73.4,12.75
140,guia de isora,20,ES,1560162566,56,28.21,-16.78,73.4,21.92
141,biak,100,ID,1560162567,98,-0.91,122.88,67.36,3.62
142,cherskiy,59,RU,1560162567,32,68.75,161.3,68.98,8.01
143,ntcheu,2,MW,1560162568,50,-14.82,34.64,63.76,7.38
144,hoi an,20,VN,1560162568,59,15.88,108.33,91.4,8.05
145,hobyo,72,SO,1560162568,40,5.35,48.53,92.2,25.59
146,saint-francois,90,FR,1560162569,87,46.42,3.91,59.0,5.82
147,kampot,40,KH,1560162570,74,10.62,104.18,86.0,10.29
148,marulanda,92,CO,1560162570,71,5.28,-75.26,59.62,1.34
149,butaritari,7,KI,1560162571,81,3.07,172.79,84.82,16.51
150,kimle,40,HU,1560162571,58,47.83,17.37,87.01,14.99
151,beringovskiy,3,RU,1560162571,60,63.05,179.32,56.38,6.22
152,isangel,20,VU,1560162572,82,-19.55,169.27,68.0,14.23
153,hay river,20,CA,1560162572,80,60.82,-115.79,30.2,5.99
154,mareeba,75,AU,1560162572,78,-16.99,145.42,73.99,9.17
155,limbang,75,BN,1560162573,79,4.75,115.01,86.0,5.82
156,inhambane,40,MZ,1560162573,94,-23.87,35.38,71.6,11.41
157,jardim,46,BR,1560162573,85,-21.48,-56.15,59.98,5.5
158,brandon,1,US,1560162574,71,43.59,-96.57,53.01,6.93
159,christchurch,0,NZ,1560162574,81,-43.53,172.64,51.8,11.41
160,high level,90,CA,1560162575,70,58.52,-117.13,44.6,8.05
161,lokosovo,2,RU,1560162575,54,61.13,74.84,56.92,21.07
162,thonon-les-bains,75,FR,1560162575,87,46.37,6.48,61.0,2.24
163,faanui,3,PF,1560162576,75,-16.48,-151.75,82.84,21.0
164,trairi,81,BR,1560162576,95,-3.28,-39.27,70.96,3.38
165,ponta do sol,6,BR,1560162576,97,-20.63,-46.0,50.26,5.23
166,yumen,100,CN,1560162577,18,40.29,97.04,83.74,12.68
167,fare,4,PF,1560162577,76,-16.7,-151.02,82.48,20.67
168,gandajika,0,CD,1560162578,33,-6.75,23.95,82.3,9.98
169,nioro,83,GM,1560162578,48,13.79,-15.05,83.38,8.84
170,kangaatsiaq,0,GL,1560162578,87,68.31,-53.46,36.4,3.02
171,kruisfontein,0,ZA,1560162579,55,-34.0,24.73,65.92,2.64
172,tuatapere,65,NZ,1560162579,80,-46.13,167.69,52.6,9.28
173,morristown,90,US,1560162579,100,36.21,-83.29,71.01,2.15
174,saskylakh,97,RU,1560162580,39,71.97,114.09,71.86,13.2
175,klaksvik,100,FO,1560162580,75,62.23,-6.59,44.6,18.34
176,half moon bay,75,US,1560162581,64,37.46,-122.43,75.0,4.41
177,esperance,20,TT,1560162581,83,10.24,-61.45,79.0,5.82
178,victor harbor,0,AU,1560162582,76,-35.55,138.62,55.99,1.12
179,atuona,55,PF,1560162582,71,-9.8,-139.03,81.76,17.9
180,hasaki,75,JP,1560162422,100,35.73,140.83,60.8,24.16
181,whitehorse,75,CA,1560162582,81,60.72,-135.06,50.0,5.82
182,uzyn,0,UA,1560162583,42,49.83,30.42,84.2,8.95
183,poum,40,MK,1560162583,41,41.28,20.71,78.8,9.17
184,sitka,0,US,1560162584,88,37.17,-99.65,48.99,7.23
185,myitkyina,100,MM,1560162584,83,25.38,97.4,80.68,2.35
186,canals,20,ES,1560162584,36,38.96,-0.58,80.01,4.7
187,hithadhoo,20,MV,1560162585,75,-0.6,73.08,84.28,7.49
188,horta,0,ES,1560162585,41,41.43,2.16,81.0,10.29
189,antalaha,87,MG,1560162586,86,-14.9,50.28,70.78,4.18
190,nuuk,40,GL,1560162586,87,64.17,-51.74,42.8,6.93
191,betanzos,40,ES,1560162586,67,43.28,-8.21,61.0,6.93
192,norman wells,20,CA,1560162587,65,65.28,-126.83,46.4,2.24
193,nicolas bravo,75,MX,1560162587,67,24.39,-104.74,60.8,9.17
194,tebingtinggi,6,ID,1560162587,81,3.33,99.16,87.52,4.83
195,okhotsk,1,RU,1560162588,75,59.36,143.24,48.28,12.28
196,lavrentiya,100,RU,1560162588,75,65.58,-170.99,54.22,5.21
197,mount isa,94,AU,1560162589,53,-20.73,139.49,71.6,4.7
198,biloela,5,AU,1560162589,61,-24.4,150.51,64.48,5.37
199,matamoros,1,US,1560162589,100,25.87,-97.51,81.0,3.49
200,yarada,75,IN,1560162590,70,17.65,83.27,87.8,9.17
201,san carlos de bariloche,75,AR,1560162590,87,-41.13,-71.31,39.2,23.04
202,aklavik,90,CA,1560162590,93,68.22,-135.01,39.2,4.7
203,laguna,0,MX,1560162591,38,27.52,-110.01,83.02,7.38
204,chokurdakh,30,RU,1560162591,19,70.62,147.9,76.18,11.52
205,talnakh,75,RU,1560162592,80,69.49,88.39,35.6,11.18
206,katsuura,75,JP,1560162592,69,33.93,134.5,73.4,10.29
207,pochinok,1,RU,1560162592,71,54.4,32.44,74.74,7.05
208,baruun-urt,100,MN,1560162593,34,46.68,113.28,78.34,6.71
209,makakilo city,75,US,1560162593,74,21.35,-158.09,78.8,3.36
210,kaberamaido,48,UG,1560162593,77,1.76,33.16,75.46,5.06
211,nagorsk,4,RU,1560162594,40,59.32,50.8,83.2,9.95
212,constitucion,75,MX,1560162594,67,23.99,-104.67,60.8,9.17
213,itapora,66,BR,1560162594,92,-22.08,-54.79,57.28,4.5
214,potosi,0,BO,1560162595,29,-19.59,-65.75,32.0,3.36
215,valdemarpils,0,LV,1560162595,49,57.37,22.59,69.8,4.7
216,quatre cocos,90,MU,1560162596,78,-20.21,57.76,77.0,10.29
217,dalton,90,US,1560162349,100,34.77,-84.97,73.4,0.94
218,mungwi,0,ZM,1560162596,52,-10.17,31.37,68.44,11.16
219,kavieng,100,PG,1560162597,73,-2.57,150.8,85.0,8.97
220,khryashchevka,13,RU,1560162597,35,53.81,49.09,84.2,6.71
221,sioux lookout,40,CA,1560162597,100,50.1,-91.92,44.6,4.59
222,akdepe,0,TM,1560162598,21,42.05,59.39,84.2,11.41
223,tommot,76,RU,1560162598,34,58.97,126.27,74.38,4.32
224,bitung,40,ID,1560162598,88,1.44,125.19,80.6,3.36
225,raychikhinsk,100,RU,1560162599,61,49.8,129.4,76.72,7.78
226,pangnirtung,80,CA,1560162599,60,66.15,-65.72,43.42,2.93
227,boende,55,CD,1560162600,39,-0.28,20.88,89.68,3.58
228,sibu,75,MY,1560162573,79,2.29,111.83,91.0,9.17
229,batemans bay,0,AU,1560162390,85,-35.71,150.18,54.0,1.86
230,upernavik,0,GL,1560162601,85,72.79,-56.15,33.38,8.3
231,tautira,20,PF,1560162601,73,-17.73,-149.15,77.0,3.36
232,hammond,40,US,1560162602,100,30.5,-90.46,80.6,4.7
233,pisco,90,PE,1560162602,93,-13.71,-76.2,62.6,3.36
234,bonavista,98,CA,1560162603,85,48.65,-53.11,41.0,15.01
235,west monroe,1,US,1560162603,94,32.52,-92.15,75.2,5.82
236,gambo,100,NG,1560162603,49,11.96,9.63,86.84,4.99
237,saint anthony,1,US,1560162607,80,43.97,-111.68,43.0,4.7
238,saint-philippe,1,CA,1560162607,72,45.36,-73.48,66.0,3.36
239,fiche,56,ET,1560162608,35,9.77,38.74,81.26,0.58
240,chapais,1,CA,1560162608,82,49.78,-74.86,55.4,3.36
241,peniche,20,PT,1560162608,63,39.36,-9.38,68.0,14.99
242,salalah,75,OM,1560162609,66,17.01,54.1,91.4,14.99
243,san rafael,100,AR,1560162610,30,-34.61,-68.33,47.78,4.09
244,rundu,0,NA,1560162610,25,-17.91,19.77,75.2,10.29
245,celestun,24,MX,1560162611,85,20.87,-90.4,81.26,11.74
246,rocha,72,UY,1560162611,94,-34.48,-54.34,63.26,9.84
247,sukpak,100,RU,1560162612,90,51.65,94.27,49.58,7.14
248,ixtapa,5,MX,1560162612,100,20.71,-105.21,75.99,4.32
249,boyolangu,72,ID,1560162613,86,-8.09,111.9,73.34,6.49
250,mount pleasant,1,US,1560162613,78,33.16,-94.97,72.0,11.41
251,ilulissat,90,GL,1560162614,100,69.22,-51.1,33.8,6.93
252,povenets,41,RU,1560162614,45,62.85,34.83,67.04,12.48
253,lata,4,IN,1560162615,29,30.78,78.62,52.82,8.5
254,cacu,38,BR,1560162615,68,-18.56,-51.13,68.48,6.29
255,west wendover,1,US,1560162615,49,40.74,-114.07,48.2,4.7
256,alta floresta,39,BR,1560162616,67,-9.87,-56.08,76.94,2.8
257,kieta,99,PG,1560162616,75,-6.22,155.63,83.78,9.44
258,merauke,73,ID,1560162616,81,-8.49,140.4,81.62,25.75
259,saint-pierre,75,FR,1560162617,72,48.95,4.24,69.01,9.17
260,vila franca do campo,75,PT,1560162617,77,37.72,-25.43,66.2,4.7
261,shakawe,0,BW,1560162618,19,-18.36,21.84,80.9,8.46
262,anadyr,0,RU,1560162618,58,64.73,177.51,55.4,6.71
263,strezhevoy,40,RU,1560162619,55,60.73,77.6,60.8,13.42
264,honghu,47,CN,1560162619,59,29.82,113.46,85.76,5.44
265,dodola,59,BF,1560162619,50,10.12,-3.28,90.8,5.99
266,valleyview,92,CA,1560162620,89,55.07,-117.28,43.28,5.19
267,evensk,33,RU,1560162620,76,61.92,159.24,47.6,2.71
268,gisborne,100,NZ,1560162339,99,-38.66,178.02,48.99,4.0
269,muktsar,16,IN,1560162621,5,30.47,74.52,117.08,9.62
270,narasannapeta,100,IN,1560162621,70,18.42,84.04,90.08,16.31
271,college,1,US,1560162621,87,64.86,-147.8,54.0,0.89
272,kiruna,90,SE,1560162622,93,67.86,20.23,39.2,10.29
273,cafarnaum,67,BR,1560162622,66,-11.69,-41.47,72.98,12.64
274,fukumitsu,75,JP,1560162623,93,36.55,136.87,68.0,3.36
275,springdale,1,US,1560162623,77,36.19,-94.13,63.0,5.82
276,zhangjiakou,0,CN,1560162623,34,40.77,114.88,68.66,5.93
277,paranaiba,34,BR,1560162624,72,-19.68,-51.19,66.5,8.86
278,elizabeth city,1,US,1560162624,88,36.3,-76.22,75.2,3.36
279,haines junction,16,CA,1560162624,67,60.75,-137.51,45.26,4.03
280,weyburn,2,CA,1560162625,68,49.67,-103.85,50.12,2.48
281,cururupu,9,BR,1560162625,89,-1.82,-44.87,80.18,3.94
282,kodiak,1,US,1560162626,80,39.95,-94.76,57.0,4.7
283,butembo,67,CD,1560162627,67,0.12,29.29,77.48,3.83
284,nouadhibou,0,MR,1560162627,50,20.93,-17.03,75.2,26.4
285,vostok,13,RU,1560162628,93,46.45,135.83,54.8,2.59
286,isiro,43,CD,1560162628,50,2.77,27.62,84.86,3.31
287,gajraula,0,IN,1560162629,7,28.84,78.25,115.64,11.72
288,cervia,20,IT,1560162629,83,44.26,12.35,81.0,8.05
289,taga,40,JP,1560162629,88,35.21,136.34,71.01,3.36
290,knysna,20,ZA,1560162630,68,-34.04,23.05,64.4,5.82
291,kavaratti,100,IN,1560162630,75,10.57,72.64,85.58,37.04
292,kapuskasing,90,CA,1560162630,100,49.42,-82.43,57.2,4.7
293,beloha,0,MG,1560162631,55,-25.17,45.06,74.78,13.94
294,cascais,20,PT,1560162631,56,38.7,-9.42,69.8,17.22
295,grand gaube,90,MU,1560162632,78,-20.01,57.66,77.0,10.29
296,tongchuan,20,CN,1560162632,32,34.9,108.95,95.0,4.47
297,yar-sale,1,RU,1560162632,51,66.83,70.83,42.02,13.27
298,teya,5,MX,1560162633,83,21.05,-89.07,80.6,5.82
299,mangrol,19,IN,1560162633,8,25.33,76.51,115.28,10.27
300,araouane,13,ML,1560162633,12,18.9,-3.53,108.44,5.95
301,conceicao do araguaia,68,BR,1560162634,66,-8.26,-49.26,78.02,2.3
302,dubai,0,AE,1560162356,42,25.27,55.3,105.8,14.99
303,kitob,75,UZ,1560162634,33,39.12,66.88,75.2,6.93
304,clyde river,90,CA,1560162635,100,70.47,-68.59,33.8,8.05
305,sorland,75,NO,1560162638,81,67.67,12.69,44.6,20.8
306,labuan,75,BN,1560162638,83,5.28,115.24,87.01,3.36
307,narsaq,7,GL,1560162639,20,60.91,-46.05,51.8,39.15
308,chas,65,IN,1560162639,10,23.63,86.18,109.34,8.84
309,monte carmelo,12,BR,1560162639,69,-18.73,-47.5,64.88,12.03
310,aksay,20,RU,1560162640,31,47.27,39.86,87.8,11.18
311,san antero,100,CO,1560162640,75,9.38,-75.76,84.86,9.6
312,kununurra,31,AU,1560162641,53,-15.77,128.74,77.0,6.71
313,sardinata,75,CO,1560162641,83,8.08,-72.8,75.2,4.7
314,locri,5,IT,1560162642,23,38.24,16.26,91.99,6.93
315,aljezur,0,PT,1560162642,72,37.31,-8.8,70.0,4.0
316,provideniya,84,RU,1560162642,65,64.42,-173.23,51.38,2.24
317,port-gentil,20,GA,1560162643,70,-0.72,8.78,84.2,12.75
318,havelock,1,US,1560162643,88,34.88,-76.9,80.01,3.36
319,boshnyakovo,95,RU,1560162644,86,49.65,142.17,44.9,1.34
320,waipawa,79,NZ,1560162470,88,-39.94,176.59,51.01,3.38
321,hofn,90,IS,1560162644,75,64.25,-15.21,44.6,10.29
322,hebi,95,CN,1560162644,29,35.75,114.29,84.5,4.54
323,paamiut,94,GL,1560162645,59,61.99,-49.67,42.92,4.85
324,balkhash,40,KZ,1560162645,30,46.84,74.98,71.6,15.66
325,kungurtug,48,RU,1560162646,42,50.6,97.53,59.48,10.18
326,vila,40,IT,1560162646,57,45.18,8.4,80.01,11.41
327,ikungi,0,TZ,1560162647,32,-5.13,34.77,81.44,7.4
328,port hedland,0,AU,1560162429,60,-20.31,118.58,69.8,8.05
329,mayo,20,CA,1560162647,75,63.59,-135.9,46.4,3.36
330,tiznit,0,MA,1560162648,77,29.7,-9.73,66.68,18.39
331,ayabaca,0,PE,1560162648,62,-4.64,-79.72,68.12,1.57
332,sept-iles,40,CA,1560162648,53,50.2,-66.38,51.8,4.7
333,srednekolymsk,64,RU,1560162649,46,67.46,153.71,62.36,10.47
334,jalu,0,LY,1560162649,19,29.03,21.55,96.74,13.2
335,pontianak,75,ID,1560162513,83,-0.02,109.34,80.6,8.05
336,muros,40,ES,1560162650,51,42.77,-9.06,64.0,6.93
337,kenai,1,US,1560162650,87,60.55,-151.26,46.4,4.7
338,jackson,1,US,1560162651,100,35.61,-88.82,73.4,11.52
339,miri,93,NG,1560162651,26,10.31,9.75,98.9,7.78
340,tadepallegudem,90,IN,1560162651,52,16.82,81.53,89.6,10.29
341,rawson,0,AR,1560162652,56,-43.3,-65.11,41.48,21.79
342,sandwick,20,GB,1560162652,47,54.57,-2.89,62.01,8.05
343,taltal,0,CL,1560162652,63,-25.41,-70.49,56.96,0.72
344,alpena,90,US,1560162653,100,45.06,-83.43,62.6,4.7
345,inongo,21,CD,1560162653,23,-1.93,18.29,96.02,4.92
346,caloundra,0,AU,1560162654,93,-26.8,153.14,62.01,5.82
347,piney green,90,US,1560162654,94,35.09,-78.48,73.99,5.14
348,monterey,1,US,1560162655,52,36.6,-121.89,71.01,7.7
349,kalmunai,100,LK,1560162655,68,7.42,81.82,85.04,4.76
350,sol-iletsk,0,RU,1560162655,44,51.16,55.0,80.72,6.62
351,henties bay,0,NA,1560162656,86,-22.12,14.28,59.0,7.0
352,gornopravdinsk,22,RU,1560162656,46,60.06,69.92,71.36,11.3
353,dudinka,75,RU,1560162656,80,69.41,86.18,35.6,11.18
354,wairoa,85,NZ,1560162657,99,-39.04,177.43,48.99,4.0
355,vila praia de ancora,40,PT,1560162657,51,41.81,-8.85,64.0,6.93
356,lasa,20,CY,1560162658,65,34.92,32.53,79.0,9.17
357,presidencia roque saenz pena,100,AR,1560162658,69,-26.79,-60.44,71.36,6.73
358,mahanoro,26,MG,1560162658,94,-19.9,48.8,70.1,4.21
359,zabaykalsk,8,CN,1560162659,46,49.64,117.33,71.0,7.02
360,hami,1,CN,1560162659,19,42.84,93.51,84.68,3.04
361,chunskiy,98,RU,1560162660,57,56.08,99.63,69.92,10.25
362,iqaluit,90,CA,1560162660,66,63.75,-68.52,33.8,9.17
363,oriximina,71,BR,1560162661,76,-1.77,-55.87,80.9,4.0
364,broken hill,0,AU,1560162661,50,-31.97,141.45,53.6,1.12
365,toora-khem,99,RU,1560162662,77,52.47,96.11,51.74,10.13
366,usinsk,100,RU,1560162662,78,66.0,57.56,46.34,16.22
367,orbetello,20,IT,1560162663,31,42.44,11.21,89.6,26.4
368,santana,40,BR,1560162663,100,-0.06,-51.18,75.2,2.24
369,bullhead city,1,US,1560162664,8,35.15,-114.57,86.0,23.04
370,adrar,0,DZ,1560162664,5,27.87,-0.29,100.4,14.99
371,cizer,0,RO,1560162664,59,47.07,22.86,79.28,8.3
372,komsomolskiy,57,RU,1560162665,63,67.55,63.78,38.96,5.7
373,te anau,95,NZ,1560162665,97,-45.41,167.72,42.2,3.06
374,shelburne,20,CA,1560162666,68,44.08,-80.2,66.99,10.29
375,kaseda,75,JP,1560162631,69,31.42,130.32,77.0,5.82
376,kautokeino,99,NO,1560162666,89,69.01,23.04,35.9,25.88
377,karratha,0,AU,1560162495,39,-20.74,116.85,73.12,11.07
378,yakeshi,79,CN,1560162454,53,49.28,120.73,72.58,4.85
379,kamien pomorski,0,PL,1560162667,82,53.97,14.77,70.0,6.93
380,tessalit,0,ML,1560162667,12,20.2,1.01,107.18,5.35
381,walvis bay,0,NA,1560162668,27,-22.95,14.51,73.4,8.05
382,cabedelo,75,BR,1560162668,100,-6.97,-34.84,75.2,3.36
383,mucuri,100,BR,1560162668,93,-18.08,-39.55,69.92,6.17
384,mayya,0,RU,1560162669,28,61.74,130.28,71.6,6.71
385,xai-xai,0,MZ,1560162669,35,-25.04,33.64,82.52,6.44
386,labuhan,97,ID,1560162669,91,-2.54,115.51,77.12,2.26
387,giraltovce,0,SK,1560162670,51,49.11,21.52,84.0,5.82
388,dingle,100,PH,1560162670,77,11.0,122.67,81.26,5.17
389,cockburn town,94,TC,1560162671,77,21.46,-71.14,82.52,14.9
390,fayaoue,0,NC,1560162671,72,-20.65,166.53,73.34,16.96
391,stalybridge,44,GB,1560162672,59,53.48,-2.06,64.99,10.29
392,lompoc,1,US,1560162672,87,34.64,-120.46,63.0,8.05
393,pacifica,75,US,1560162672,64,37.61,-122.49,75.99,5.44
394,murray bridge,0,AU,1560162673,85,-35.12,139.28,53.01,6.02
395,riyadh,0,SA,1560162394,7,24.63,46.72,111.2,4.7
396,richards bay,0,ZA,1560162673,50,-28.77,32.06,75.14,4.36
397,antsohihy,0,MG,1560162674,56,-14.88,47.99,83.42,18.81
398,buenos aires,75,AR,1560162411,93,-34.61,-58.44,62.01,8.05
399,portland,1,US,1560162438,51,45.52,-122.67,62.6,5.82
400,ternate,75,PH,1560162675,83,14.29,120.72,84.99,5.93
401,jinka,73,ET,1560162675,91,5.79,36.57,68.12,3.18
402,umm lajj,0,SA,1560162676,64,25.02,37.27,86.66,18.7
403,roald,75,NO,1560162676,87,62.58,6.12,60.8,21.92
404,banjar,94,ID,1560162677,95,-7.37,108.54,73.7,2.89
405,duldurga,47,RU,1560162677,57,50.67,113.59,68.12,3.76
406,coihaique,0,CL,1560162677,59,-45.58,-72.07,37.4,4.7
407,jeremie,30,HT,1560162678,71,18.65,-74.12,82.34,1.77
408,yurty,100,RU,1560162678,84,56.05,97.64,60.74,8.39
409,eyl,100,SO,1560162679,40,7.98,49.82,89.72,24.2
410,liuli,6,TZ,1560162679,69,-11.1,34.65,73.52,16.91
411,abnub,0,EG,1560162679,24,27.27,31.15,93.2,11.41
412,general jose eduvigis diaz,0,PY,1560162680,73,-27.17,-58.42,69.8,10.29
413,middletown,1,US,1560162680,87,41.55,-71.29,59.0,3.36
414,svetlogorsk,20,RU,1560162681,34,53.14,59.15,80.6,13.42
415,valparaiso,90,US,1560162681,93,41.47,-87.06,64.99,9.17
416,freeport,81,BS,1560162682,73,26.54,-78.7,83.6,8.75
417,nishihara,75,JP,1560162682,93,35.74,139.53,63.0,11.41
418,florida ridge,1,US,1560162682,94,27.58,-80.39,75.99,3.36
419,vao,17,EE,1560162683,42,59.1,26.19,68.48,10.4
420,warwick,75,US,1560162683,76,41.7,-71.42,57.99,3.36
421,port lincoln,0,AU,1560162684,69,-34.72,135.86,61.46,20.49
422,sibolga,33,ID,1560162684,72,1.74,98.78,84.32,4.76
423,lebyazhye,40,RU,1560162684,46,59.96,29.42,69.8,15.66
424,del rio,75,US,1560162685,88,29.36,-100.9,73.4,8.05
425,tumen,61,CN,1560162685,94,42.97,129.84,51.38,4.38
426,port-cartier,40,CA,1560162686,53,50.03,-66.88,51.8,4.7
427,tokonou,92,GN,1560162686,68,9.65,-9.78,83.42,5.26
428,fairbanks,1,US,1560162686,87,64.84,-147.72,54.0,0.89
429,lazaro cardenas,100,MX,1560162687,60,28.39,-105.62,72.0,5.01
430,palmerston north,67,NZ,1560162649,88,-40.35,175.62,54.0,1.01
431,hornepayne,100,CA,1560162687,95,49.22,-84.78,53.18,9.15
432,escalerillas,40,MX,1560162688,50,19.14,-100.12,60.01,5.82
433,akonolinga,87,CM,1560162688,59,3.77,12.24,84.32,3.13
434,biryusinsk,100,RU,1560162688,84,55.96,97.82,60.74,8.39
435,lucapa,0,AO,1560162689,22,-8.42,20.74,87.92,7.85
436,porbandar,24,IN,1560162689,88,21.64,69.61,85.22,13.94
437,la asuncion,80,EC,1560162689,84,-1.64,-78.74,44.54,7.23
438,tual,100,ID,1560162690,82,-5.67,132.75,83.24,15.99
439,santa maria,0,BR,1560162691,82,-29.69,-53.81,64.4,5.82
440,ayan,94,TR,1560162691,48,40.67,33.6,74.78,1.63
441,awjilah,0,LY,1560162692,19,29.14,21.3,96.2,14.29
442,outram,62,NZ,1560162692,80,-45.86,170.23,50.0,11.01
443,paita,0,PE,1560162692,92,-5.09,-81.11,67.04,13.27
444,stromness,75,CA,1560162693,93,42.87,-79.55,68.0,12.75
445,san andres,100,PH,1560162693,88,13.32,122.68,80.36,5.84
446,flin flon,3,CA,1560162693,55,54.77,-101.88,41.3,5.01
447,wundanyi,86,KE,1560162694,47,-3.4,38.37,76.76,9.28
448,bangil,34,ID,1560162694,67,-7.6,112.78,79.1,3.51
449,ossora,96,RU,1560162695,95,59.24,163.07,42.2,3.8
450,rio gallegos,0,AR,1560162695,86,-51.62,-69.22,30.2,17.22
451,akim swedru,91,GH,1560162695,87,5.89,-1.02,81.44,4.0
452,cap malheureux,90,MU,1560162696,78,-19.98,57.61,77.0,10.29
453,tecolutla,69,MX,1560162696,90,17.31,-98.74,62.18,0.89
454,lorengau,40,PG,1560162697,86,-2.02,147.27,80.72,5.86
455,arsk,0,RU,1560162697,28,56.09,49.88,86.0,8.95
456,la cruz,36,MX,1560162698,94,23.92,-106.89,75.0,2.48
457,zyryanovsk,78,KZ,1560162698,81,49.74,84.27,56.06,3.33
458,tongliao,75,CN,1560162433,41,43.61,122.27,78.52,3.83
459,indramayu,71,ID,1560162698,81,-4.05,103.78,74.6,2.01
460,nizhniy tsasuchey,44,RU,1560162699,52,50.52,115.13,74.24,6.04
461,dukat,0,RS,1560162699,45,42.44,22.31,81.0,5.99
462,khuzhir,0,RU,1560162699,42,53.19,107.35,70.1,5.1
463,ritchie,0,ZA,1560162700,43,-29.03,24.6,69.8,13.87
464,brae,40,GB,1560162700,87,60.4,-1.35,50.0,14.99
465,ahipara,60,NZ,1560162701,68,-35.17,173.16,59.48,2.84
466,skjervoy,100,NO,1560162701,78,70.03,20.97,40.94,17.31
467,tadine,0,NC,1560162701,70,-21.55,167.88,72.8,12.44
468,hovd,75,NO,1560162702,76,63.83,10.7,55.99,4.7
469,slave lake,40,CA,1560162702,62,55.28,-114.77,53.6,5.82
470,iquique,0,CL,1560162703,82,-20.22,-70.14,57.2,10.29
471,puerto del rosario,75,ES,1560162703,64,28.5,-13.86,71.6,17.22
472,komagane,99,JP,1560162704,99,35.73,137.94,63.0,4.12
473,ivanava,0,BY,1560162704,59,52.14,25.53,79.82,6.24
474,tam ky,20,VN,1560162562,59,15.57,108.48,91.4,8.05
475,palu,90,ID,1560162705,92,-0.9,119.87,77.48,0.83
476,hamilton,75,BM,1560162705,88,32.3,-64.78,73.4,1.12
477,nyurba,100,RU,1560162706,81,63.29,118.35,62.9,5.41
478,riviere-du-loup,98,CA,1560162706,62,47.83,-69.53,60.56,2.42
479,pointe michel,20,DM,1560162706,83,15.25,-61.38,78.8,2.24
480,florianopolis,0,BR,1560162707,88,-27.6,-48.55,72.0,6.93
481,gillette,1,US,1560162707,70,44.29,-105.5,44.6,14.99
482,ola,16,RU,1560162708,84,59.58,151.3,43.1,2.84
483,sabha,0,LY,1560162708,12,27.03,14.43,94.76,6.49
484,kyabe,93,TD,1560162708,51,9.45,18.94,88.64,6.89
485,havoysund,75,NO,1560162709,77,71.0,24.66,33.8,27.51
486,marsa matruh,20,EG,1560162709,65,31.35,27.25,80.6,9.17
487,aketi,81,CD,1560162709,42,2.74,23.78,89.72,3.22
488,staryy nadym,15,RU,1560162710,45,65.61,72.68,42.74,15.57
489,flinders,0,AU,1560162710,76,-34.58,150.85,64.0,4.7
490,katherine,41,AU,1560162711,48,-14.47,132.26,82.4,6.93
491,la primavera,0,AR,1560162711,75,-32.92,-68.67,42.8,4.7
492,inirida,99,CO,1560162712,95,3.87,-67.92,76.58,1.39
493,damghan,3,IR,1560162712,61,36.17,54.34,64.16,9.75
494,longjiang,24,CN,1560162713,50,47.33,123.18,72.62,5.35
495,pangoa,0,PE,1560162713,66,-12.12,-73.0,67.22,2.13
496,murakami,75,JP,1560162713,68,38.29,139.58,66.2,5.82
497,mirnyy,64,RU,1560162714,45,56.57,36.46,78.2,5.75
498,kargasok,85,RU,1560162714,55,59.06,80.87,69.74,6.87
499,ahuimanu,75,US,1560162714,74,21.44,-157.84,78.8,3.36
500,fukue,40,JP,1560162715,88,35.03,136.69,69.01,3.36
501,namikupa,3,MZ,1560162715,32,-10.84,39.63,87.74,7.45
502,jasper,1,US,1560162716,100,33.83,-87.28,72.0,7.25
503,przhevalskoye,0,RU,1560162716,38,55.51,31.85,76.94,5.55
504,ilabaya,1,PE,1560162716,73,-17.42,-70.51,59.84,2.28
505,sangar,17,RU,1560162717,39,63.92,127.47,69.38,11.25
506,shingu,75,JP,1560162717,88,33.72,135.99,69.8,6.93
507,tezu,44,IN,1560162717,65,27.93,96.16,85.4,1.48
508,qaqortoq,7,GL,1560162718,20,60.72,-46.03,51.8,39.15
509,havre-saint-pierre,20,CA,1560162718,65,50.23,-63.6,46.4,8.05
510,nurota,6,UZ,1560162718,19,40.56,65.69,80.6,13.87
511,san policarpo,100,PH,1560162719,80,12.18,125.51,83.96,9.62
512,berlevag,75,NO,1560162719,80,70.86,29.09,33.8,19.46
513,kabinda,3,CD,1560162720,21,-6.14,24.49,91.88,6.93
514,lentekhi,78,GE,1560162720,28,42.79,42.72,68.3,6.31
515,stara vyzhivka,0,UA,1560162720,59,51.44,24.44,80.9,8.12
516,yovon,75,TJ,1560162721,49,38.32,69.05,87.8,17.9
517,berezovyy,100,RU,1560162721,98,51.67,135.7,43.64,2.53
518,mastic beach,90,US,1560162721,93,40.77,-72.85,62.01,3.36
519,balakhninskiy,68,RU,1560162722,53,58.01,114.28,67.58,4.03
520,la ciotat,0,FR,1560162722,54,43.17,5.6,82.99,11.41
521,vorontsovka,27,RU,1560162722,47,50.61,40.34,83.78,4.88
522,mehamn,100,NO,1560162723,86,71.03,27.85,35.9,23.17
523,almaznyy,20,RU,1560162723,31,48.03,40.04,87.8,11.18
524,sydney,0,AU,1560162723,72,-33.85,151.22,64.0,4.7
525,santa cruz de la palma,40,ES,1560162724,60,28.68,-17.76,71.6,13.87
526,havre,1,US,1560162724,86,48.55,-109.68,43.0,9.17
527,kanniyakumari,95,IN,1560162655,80,8.08,77.57,83.24,22.39
528,eureka,1,US,1560162488,100,40.8,-124.16,52.0,11.01
529,touros,65,BR,1560162725,80,-5.2,-35.46,81.08,16.33
530,pasighat,22,IN,1560162726,85,28.06,95.33,77.84,1.86
531,puerto madryn,0,AR,1560162726,52,-42.77,-65.04,44.18,17.67
532,naryan-mar,100,RU,1560162726,75,67.67,53.09,39.68,11.59
533,puerto escondido,100,MX,1560162727,80,15.86,-97.07,79.46,3.22
534,seydi,20,NE,1560162727,63,13.34,7.75,91.4,6.93
535,port keats,30,AU,1560162727,69,-14.25,129.55,79.82,6.13
536,kodarma,62,IN,1560162728,11,24.47,85.59,109.7,7.92
537,hervey bay,83,AU,1560162588,88,-25.3,152.85,64.0,4.7
538,san cristobal,75,EC,1560162729,93,-0.39,-78.55,55.4,4.7
